Address,Latitude,Longitude
1745 Folsom St San Francisco CA 94103,37.7692892,-122.415499
1200 Irving St San Francisco CA 94122,37.7641482,-122.4711457
308 Broderick St San Francisco CA 94117,37.7732175,-122.4389052
707 Clement St San Francisco CA 94118,37.7826495,-122.4668259
1530 Haight St San Francisco CA 94117,37.7702281,-122.4475864
4201 18th St San Francisco CA 94114,37.7606086,-122.4363285
2020 Market St San Francisco CA 94114,37.7688487,-122.4279242
2435 California St San Francisco CA 94115,37.7885472,-122.434559
10 4th St San Francisco CA 94103,37.7853327,-122.4056674
1737 Post St #333 San Francisco CA 94115,37.7852489,-122.4310973
145 Jackson St San Francisco CA 94111,37.796916,-122.3986313
3353 26th St San Francisco CA 94110,37.7489006,-122.417194
6333 Geary Blvd San Francisco CA 94121,37.7796459,-122.4874986
1462 Fillmore St San Francisco CA 94115,37.7831002,-122.4322763
2480 San Bruno Ave San Francisco CA 94134,37.730366,-122.4050921
2200 Mission St San Francisco CA 94110,37.7616816,-122.4195756
2323 Chestnut St San Francisco CA 94123,37.7999237,-122.4416772
1245 S Van Ness Ave San Francisco CA 94110,37.7530915,-122.4159773
15 Marina Blvd San Francisco CA 94123,37.8043948,-122.4328779
3585 California St San Francisco CA 94118,37.7861846,-122.452872
2101 Irving St San Francisco CA 94122,37.7631433,-122.4805567
735 7th Ave San Francisco CA 94118,37.7745526,-122.4653886
1524 20th St San Francisco CA 94107,37.7601828,-122.3968391
2824 24th St San Francisco CA 94110,37.753025,-122.4087428
550 Divisadero St San Francisco CA 94117,37.7747991,-122.4373902
1335 Webster St San Francisco CA 94115,37.7827705,-122.4316835
2900 Alemany Blvd San Francisco CA 94112,37.7120012,-122.4528278
1750 Fulton St San Francisco CA 94117,37.776174,-122.445785
1000 Howard St San Francisco CA 94103,37.7796995,-122.4076586
350 Bay St San Francisco CA 94133,37.8058573,-122.412763
144 Page St San Francisco CA 94102,37.7742409,-122.4232334
1528 Fillmore St San Francisco CA 94115,37.783751,-122.43249
2934 24th St San Francisco CA 94110,37.7529598,-122.4107118
1308 Stockton St San Francisco CA 94133,37.7978898,-122.4085691
782 Arguello Blvd San Francisco CA 94118,37.7756466,-122.4580911
1964 Hyde St San Francisco CA 94109,37.7991431,-122.4189477
1546 Guerrero St San Francisco CA 94110,37.746507,-122.4225693
1800 Folsom St San Francisco CA 94103,37.7676187,-122.4161734
2539 Mission St San Francisco CA 94110,37.7564239,-122.4185214
985 Bush St San Francisco CA 94109,37.7893364,-122.4132527
400 Irving St San Francisco CA 94122,37.7643769,-122.4623591
2354 Clement St San Francisco CA 94121,37.7822271,-122.4847353
731 Market St San Francisco CA 94103,37.7868443,-122.4040424
724 Larkin St San Francisco CA 94109,37.7846411,-122.4176204
906 Stockton St San Francisco CA 94108,37.7942703,-122.4077553
1601 20th St San Francisco CA 94107,37.7597826,-122.3974144
900 Post St San Francisco CA 94109,37.7873647,-122.4169285
501 Fillmore St San Francisco CA 94117,37.774251,-122.431075
225 Leavenworth St San Francisco CA 94102,37.78318,-122.414318
6001 California St San Francisco CA 94121,37.7837674,-122.4819717
861 Divisadero St San Francisco CA 94117,37.7776531,-122.4385024
1301 18th St San Francisco CA 94107,37.7624827,-122.3957769
3216 Folsom St San Francisco CA 94110,37.7467317,-122.4138313
1042 Polk St San Francisco CA 94109,37.7867276,-122.4197759
Navy Base Exchange Building 201 800 Avenue H San Francisco CA 94130,37.8264139,-122.370084
920 Van Ness Ave San Francisco CA 94109,37.7841748,-122.4206451
191 8th St San Francisco CA 94103,37.7765869,-122.4117295
500 Grove St San Francisco CA 94102,37.7777521,-122.4250694
868 Geary St San Francisco CA 94109,37.7863772,-122.4176586
1601 Fulton St #1318 San Francisco CA 94117,37.7759914,-122.4432515
201 6th St San Francisco CA 94103,37.779743,-122.4069567
123 Eddy St San Francisco CA 94102,37.7841976,-122.4096608
1390 Silver Ave San Francisco CA 94134,37.7311031,-122.4091189
200 Eddy St San Francisco CA 94102,37.7842266,-122.4112498
3350 Mission St San Francisco CA 94110,37.7432206,-122.422429
200 Noe St San Francisco CA 94114,37.7657253,-122.4334309
1203 Polk St San Francisco CA 94109,37.7879199,-122.4203377
988 Sutter St San Francisco CA 94109,37.7884805,-122.416585
696 Chenery St San Francisco CA 94131,37.7347027,-122.4336963